Name,Population,Latitude,Longitude
Basilan,"426,207",6.4296,121.987
Lanao del Sur,"1,195,518",7.8232,124.4198
Maguindanao,"1,342,179",6.9423,124.4198
Sulu,"1,000,108",5.9749,121.0335
Tawi-Tawi,"440,276",5.1338,119.9509
