Name,Population,Latitude,Longitude
Abra,"250,985",17.5951,120.7983
Apayao,"124,366",18.012,121.171
Benguet,"460,683",16.5577,120.8039
Baguio,"366,358",16.4023,120.596
Ifugao,"207,498",16.8331,121.171
Kalinga,"229,570",17.474,121.3542
Mountain Province,"158,200",17.0663,121.0335
