Name,Population,Latitude,Longitude
Cotabato,"1,490,618",7.2047,124.231
Sarangani,"558,946",5.9267,124.9948
South Cotabato,"975,476",6.3358,124.7741
General Santos,"697,315",6.1164,125.1716
Sultan Kudarat,"854,052",6.5069,124.4198
Cotabato City,"325,079",7.21666667,124.25
